[{"id": "XG35JLbcIIkEzM7icHS6IA", "alias": "gun-barrel-steak-and-game-house-jackson-2", "name": "Gun Barrel Steak and Game House", "image_url": "https://s3-media1.fl.yelpcdn.com/bphoto/JucDjPM5tGP9ZGtIjrFq2A/o.jpg", "is_closed": false, "url": "https://www.yelp.com/biz/gun-barrel-steak-and-game-house-jackson-2?adjust_creative=N4NdN5Wbst2zJ7gy6AiqOA&utm_campaign=yelp_api_v3&utm_medium=api_v3_business_search&utm_source=N4NdN5Wbst2zJ7gy6AiqOA", "review_count": 738, "categories": [{"alias": "steak", "title": "Steakhouses"}, {"alias": "bars", "title": "Bars"}], "rating": 4.0, "coordinates": {"latitude": 43.473926, "longitude": -110.78148}, "transactions": [], "price": "$$$", "location": {"address1": "862 W Broadway Ave", "address2": "", "address3": "", "city": "Jackson", "zip_code": "83001", "country": "US", "state": "WY", "display_address": ["862 W Broadway Ave", "Jackson, WY 83001"]}, "phone": "+13077333287", "display_phone": "(307) 733-3287", "distance": 1160.6339399870562}, {"id": "0NFRNbEC8mcnXOQNYABc2Q", "alias": "million-dollar-cowboy-steakhouse-jackson-9", "name": "Million Dollar Cowboy Steakhouse", "image_url": "https://s3-media3.fl.yelpcdn.com/bphoto/F-FaJwSDI2_eIeGetTNS7g/o.jpg", "is_closed": false, "url": "https://www.yelp.com/biz/million-dollar-cowboy-steakhouse-jackson-9?adjust_creative=N4NdN5Wbst2zJ7gy6AiqOA&utm_campaign=yelp_api_v3&utm_medium=api_v3_business_search&utm_source=N4NdN5Wbst2zJ7gy6AiqOA", "review_count": 61, "categories": [{"alias": "steak", "title": "Steakhouses"}], "rating": 4.0, "coordinates": {"latitude": 43.479877, "longitude": -110.762891}, "transactions": [], "location": {"address1": "25 N Cache St", "address2": "", "address3": "", "city": "Jackson", "zip_code": "83001", "country": "US", "state": "WY", "display_address": ["25 N Cache St", "Jackson, WY 83001"]}, "phone": "+13077331270", "display_phone": "(307) 733-1270", "distance": 1742.6229040024432}, {"id": "4smfob4LS6BalU2h-Psa5Q", "alias": "gather-in-jackson-hole-jackson", "name": "Gather in Jackson Hole", "image_url": "https://s3-media3.fl.yelpcdn.com/bphoto/3rnIWi371SM9LBhWa4TxGw/o.jpg", "is_closed": false, "url": "https://www.yelp.com/biz/gather-in-jackson-hole-jackson?adjust_creative=N4NdN5Wbst2zJ7gy6AiqOA&utm_campaign=yelp_api_v3&utm_medium=api_v3_business_search&utm_source=N4NdN5Wbst2zJ7gy6AiqOA", "review_count": 891, "categories": [{"alias": "newamerican", "title": "American (New)"}, {"alias": "wine_bars", "title": "Wine Bars"}, {"alias": "cocktailbars", "title": "Cocktail Bars"}], "rating": 4.5, "coordinates": {"latitude": 43.478733, "longitude": -110.763525}, "transactions": [], "price": "$$$", "location": {"address1": "72 S Glenwood St", "address2": "", "address3": "", "city": "Jackson", "zip_code": "83001", "country": "US", "state": "WY", "display_address": ["72 S Glenwood St", "Jackson, WY 83001"]}, "phone": "+13072641820", "display_phone": "(307) 264-1820", "distance": 1603.4206086742827}, {"id": "q56Txb8gSs13KkjPou3ZCA", "alias": "local-restaurant-and-bar-jackson", "name": "Local Restaurant & Bar", "image_url": "https://s3-media3.fl.yelpcdn.com/bphoto/8EQ3rNbPpYaMryjO6_ap8g/o.jpg", "is_closed": false, "url": "https://www.yelp.com/biz/local-restaurant-and-bar-jackson?adjust_creative=N4NdN5Wbst2zJ7gy6AiqOA&utm_campaign=yelp_api_v3&utm_medium=api_v3_business_search&utm_source=N4NdN5Wbst2zJ7gy6AiqOA", "review_count": 884, "categories": [{"alias": "newamerican", "title": "American (New)"}, {"alias": "steak", "title": "Steakhouses"}], "rating": 4.0, "coordinates": {"latitude": 43.4799497, "longitude": -110.7625353}, "transactions": ["delivery"], "price": "$$$", "location": {"address1": "55 N Cache St", "address2": "", "address3": "", "city": "Jackson", "zip_code": "83001", "country": "US", "state": "WY", "display_address": ["55 N Cache St", "Jackson, WY 83001"]}, "phone": "+13072011717", "display_phone": "(307) 201-1717", "distance": 1762.2214580802772}, {"id": "mD2tI_hbnQdYVKTTTEPdcg", "alias": "the-whistling-grizzly-jackson-2", "name": "The Whistling Grizzly", "image_url": "https://s3-media1.fl.yelpcdn.com/bphoto/RrTpRgHIijWu21t-bj6zAQ/o.jpg", "is_closed": false, "url": "https://www.yelp.com/biz/the-whistling-grizzly-jackson-2?adjust_creative=N4NdN5Wbst2zJ7gy6AiqOA&utm_campaign=yelp_api_v3&utm_medium=api_v3_business_search&utm_source=N4NdN5Wbst2zJ7gy6AiqOA", "review_count": 88, "categories": [{"alias": "breakfast_brunch", "title": "Breakfast & Brunch"}, {"alias": "tradamerican", "title": "American (Traditional)"}, {"alias": "steak", "title": "Steakhouses"}], "rating": 4.5, "coordinates": {"latitude": 43.47367, "longitude": -110.78363}, "transactions": [], "price": "$$", "location": {"address1": "930 W Broadway", "address2": "", "address3": null, "city": "Jackson", "zip_code": "83001", "country": "US", "state": "WY", "display_address": ["930 W Broadway", "Jackson, WY 83001"]}, "phone": "+13076997227", "display_phone": "(307) 699-7227", "distance": 1257.2281223065938}, {"id": "vXlbxxDcoVmLlPRqIlb6aQ", "alias": "stillwest-brewery-and-grill-jackson", "name": "StillWest Brewery & Grill", "image_url": "https://s3-media2.fl.yelpcdn.com/bphoto/gsZL0HeO3hJGQZTST3CEWg/o.jpg", "is_closed": false, "url": "https://www.yelp.com/biz/stillwest-brewery-and-grill-jackson?adjust_creative=N4NdN5Wbst2zJ7gy6AiqOA&utm_campaign=yelp_api_v3&utm_medium=api_v3_business_search&utm_source=N4NdN5Wbst2zJ7gy6AiqOA", "review_count": 259, "categories": [{"alias": "brewpubs", "title": "Brewpubs"}, {"alias": "tradamerican", "title": "American (Traditional)"}, {"alias": "beerbar", "title": "Beer Bar"}], "rating": 4.0, "coordinates": {"latitude": 43.473582, "longitude": -110.76126}, "transactions": [], "price": "$$", "location": {"address1": "45 East Snow King Ave", "address2": null, "address3": "", "city": "Jackson", "zip_code": "83001", "country": "US", "state": "WY", "display_address": ["45 East Snow King Ave", "Jackson, WY 83001"]}, "phone": "+13072015955", "display_phone": "(307) 201-5955", "distance": 1245.3545706209013}, {"id": "UhFUupiFBvwgfSTZW205aQ", "alias": "snake-river-grill-jackson-2", "name": "Snake River Grill", "image_url": "https://s3-media1.fl.yelpcdn.com/bphoto/P3irT_sFHQPwolycJkCHfQ/o.jpg", "is_closed": false, "url": "https://www.yelp.com/biz/snake-river-grill-jackson-2?adjust_creative=N4NdN5Wbst2zJ7gy6AiqOA&utm_campaign=yelp_api_v3&utm_medium=api_v3_business_search&utm_source=N4NdN5Wbst2zJ7gy6AiqOA", "review_count": 430, "categories": [{"alias": "newamerican", "title": "American (New)"}], "rating": 4.0, "coordinates": {"latitude": 43.479569, "longitude": -110.760945}, "transactions": [], "price": "$$$", "location": {"address1": "84 E Broadway", "address2": null, "address3": "", "city": "Jackson", "zip_code": "83001", "country": "US", "state": "WY", "display_address": ["84 E Broadway", "Jackson, WY 83001"]}, "phone": "+13077330557", "display_phone": "(307) 733-0557", "distance": 1785.4543069516455}, {"id": "nyw0gut-UVZDvz65gAeBeQ", "alias": "snake-river-brewing-jackson", "name": "Snake River Brewing", "image_url": "https://s3-media1.fl.yelpcdn.com/bphoto/Pn_disRavN8EuFRdndUQ5g/o.jpg", "is_closed": false, "url": "https://www.yelp.com/biz/snake-river-brewing-jackson?adjust_creative=N4NdN5Wbst2zJ7gy6AiqOA&utm_campaign=yelp_api_v3&utm_medium=api_v3_business_search&utm_source=N4NdN5Wbst2zJ7gy6AiqOA", "review_count": 1497, "categories": [{"alias": "brewpubs", "title": "Brewpubs"}, {"alias": "tradamerican", "title": "American (Traditional)"}], "rating": 4.0, "coordinates": {"latitude": 43.47681889270507, "longitude": -110.7654323}, "transactions": [], "price": "$$", "location": {"address1": "265 S Millward St", "address2": null, "address3": "", "city": "Jackson", "zip_code": "83001", "country": "US", "state": "WY", "display_address": ["265 S Millward St", "Jackson, WY 83001"]}, "phone": "+13077392337", "display_phone": "(307) 739-2337", "distance": 1344.9283986422572}, {"id": "dmKTWC6gaHrzwahO5wVdWg", "alias": "the-restaurant-at-white-buffalo-club-jackson-3", "name": "The Restaurant at White Buffalo Club", "image_url": "https://s3-media3.fl.yelpcdn.com/bphoto/NcfDsgfCQOeojYRe57I9qQ/o.jpg", "is_closed": false, "url": "https://www.yelp.com/biz/the-restaurant-at-white-buffalo-club-jackson-3?adjust_creative=N4NdN5Wbst2zJ7gy6AiqOA&utm_campaign=yelp_api_v3&utm_medium=api_v3_business_search&utm_source=N4NdN5Wbst2zJ7gy6AiqOA", "review_count": 95, "categories": [{"alias": "newamerican", "title": "American (New)"}, {"alias": "steak", "title": "Steakhouses"}, {"alias": "bars", "title": "Bars"}], "rating": 4.0, "coordinates": {"latitude": 43.481595, "longitude": -110.7647219}, "transactions": [], "price": "$$$", "location": {"address1": "160 W Gill Ave", "address2": "Ste A", "address3": "", "city": "Jackson", "zip_code": "83001", "country": "US", "state": "WY", "display_address": ["160 W Gill Ave", "Ste A", "Jackson, WY 83001"]}, "phone": "+13077344901", "display_phone": "(307) 734-4901", "distance": 1859.112086985442}, {"id": "KKjDR53NfkjZQI0VqB1WGA", "alias": "westbank-grill-jackson", "name": "Westbank Grill", "image_url": "https://s3-media2.fl.yelpcdn.com/bphoto/57D2ZZInVvsoKCY-YxSyOQ/o.jpg", "is_closed": false, "url": "https://www.yelp.com/biz/westbank-grill-jackson?adjust_creative=N4NdN5Wbst2zJ7gy6AiqOA&utm_campaign=yelp_api_v3&utm_medium=api_v3_business_search&utm_source=N4NdN5Wbst2zJ7gy6AiqOA", "review_count": 104, "categories": [{"alias": "newamerican", "title": "American (New)"}], "rating": 4.0, "coordinates": {"latitude": 43.589, "longitude": -110.82664}, "transactions": [], "price": "$$$", "location": {"address1": "7680 Granite Loop Rd", "address2": "", "address3": "", "city": "Jackson", "zip_code": "83025", "country": "US", "state": "WY", "display_address": ["7680 Granite Loop Rd", "Jackson, WY 83025"]}, "phone": "+13077325000", "display_phone": "(307) 732-5000", "distance": 14406.698022227576}, {"id": "3sRwBhbSqlkorFPko66b5A", "alias": "sweet-cheeks-meats-jackson", "name": "Sweet Cheeks Meats", "image_url": "https://s3-media1.fl.yelpcdn.com/bphoto/Vu6wtX-K0eY9s_jrySQiUQ/o.jpg", "is_closed": false, "url": "https://www.yelp.com/biz/sweet-cheeks-meats-jackson?adjust_creative=N4NdN5Wbst2zJ7gy6AiqOA&utm_campaign=yelp_api_v3&utm_medium=api_v3_business_search&utm_source=N4NdN5Wbst2zJ7gy6AiqOA", "review_count": 31, "categories": [{"alias": "butcher", "title": "Butcher"}], "rating": 4.5, "coordinates": {"latitude": 43.47245, "longitude": -110.78279}, "transactions": [], "price": "$$", "location": {"address1": "185 Scott Ln", "address2": null, "address3": "", "city": "Jackson", "zip_code": "83002", "country": "US", "state": "WY", "display_address": ["185 Scott Ln", "Jackson, WY 83002"]}, "phone": "+13077346328", "display_phone": "(307) 734-6328", "distance": 1126.630312513703}, {"id": "cSwBv8Cb-qbhnAL_D8JTeQ", "alias": "coelette-jackson", "name": "Coelette", "image_url": "https://s3-media2.fl.yelpcdn.com/bphoto/wVDfRi4rAuJdfKO_giAOtg/o.jpg", "is_closed": false, "url": "https://www.yelp.com/biz/coelette-jackson?adjust_creative=N4NdN5Wbst2zJ7gy6AiqOA&utm_campaign=yelp_api_v3&utm_medium=api_v3_business_search&utm_source=N4NdN5Wbst2zJ7gy6AiqOA", "review_count": 81, "categories": [{"alias": "cafes", "title": "Cafes"}, {"alias": "cocktailbars", "title": "Cocktail Bars"}], "rating": 4.5, "coordinates": {"latitude": 43.47875, "longitude": -110.76081}, "transactions": [], "location": {"address1": "85 S King St", "address2": null, "address3": "", "city": "Jackson", "zip_code": "83001", "country": "US", "state": "WY", "display_address": ["85 S King St", "Jackson, WY 83001"]}, "phone": "+13072015026", "display_phone": "(307) 201-5026", "distance": 1707.2308544016569}, {"id": "ZmiW3PpUgFGwDQqWlxP10w", "alias": "grill-at-amangani-jackson", "name": "Grill At Amangani", "image_url": "https://s3-media3.fl.yelpcdn.com/bphoto/ovuaVxo3qaZBMO9J-Mctsw/o.jpg", "is_closed": false, "url": "https://www.yelp.com/biz/grill-at-amangani-jackson?adjust_creative=N4NdN5Wbst2zJ7gy6AiqOA&utm_campaign=yelp_api_v3&utm_medium=api_v3_business_search&utm_source=N4NdN5Wbst2zJ7gy6AiqOA", "review_count": 42, "categories": [{"alias": "newamerican", "title": "American (New)"}], "rating": 4.0, "coordinates": {"latitude": 43.50404, "longitude": -110.77439}, "transactions": [], "price": "$$$$", "location": {"address1": "1535 NE Butte Rd", "address2": "", "address3": "", "city": "Jackson", "zip_code": "83001", "country": "US", "state": "WY", "display_address": ["1535 NE Butte Rd", "Jackson, WY 83001"]}, "phone": "+13077347333", "display_phone": "(307) 734-7333", "distance": 4247.257286747724}, {"id": "Z7dpnPnM_L-Wm8N8BWeSWA", "alias": "the-blue-lion-jackson", "name": "The Blue Lion", "image_url": "https://s3-media1.fl.yelpcdn.com/bphoto/eq-a94sMlny5_vi7slpm8g/o.jpg", "is_closed": false, "url": "https://www.yelp.com/biz/the-blue-lion-jackson?adjust_creative=N4NdN5Wbst2zJ7gy6AiqOA&utm_campaign=yelp_api_v3&utm_medium=api_v3_business_search&utm_source=N4NdN5Wbst2zJ7gy6AiqOA", "review_count": 326, "categories": [{"alias": "newamerican", "title": "American (New)"}, {"alias": "seafood", "title": "Seafood"}, {"alias": "wine_bars", "title": "Wine Bars"}], "rating": 4.0, "coordinates": {"latitude": 43.48126, "longitude": -110.7647}, "transactions": [], "price": "$$$", "location": {"address1": "160 N Millward St", "address2": "", "address3": "", "city": "Jackson", "zip_code": "83001", "country": "US", "state": "WY", "display_address": ["160 N Millward St", "Jackson, WY 83001"]}, "phone": "+13077333912", "display_phone": "(307) 733-3912", "distance": 1815.6504342386615}, {"id": "t3LE66a6Zi71JeoDkrMj0A", "alias": "roadhouse-pub-and-eatery-jackson", "name": "Roadhouse Pub & Eatery", "image_url": "https://s3-media2.fl.yelpcdn.com/bphoto/yFwdYBqw16qRk6_YR4kPzA/o.jpg", "is_closed": false, "url": "https://www.yelp.com/biz/roadhouse-pub-and-eatery-jackson?adjust_creative=N4NdN5Wbst2zJ7gy6AiqOA&utm_campaign=yelp_api_v3&utm_medium=api_v3_business_search&utm_source=N4NdN5Wbst2zJ7gy6AiqOA", "review_count": 209, "categories": [{"alias": "gastropubs", "title": "Gastropubs"}, {"alias": "sandwiches", "title": "Sandwiches"}, {"alias": "brewpubs", "title": "Brewpubs"}], "rating": 3.5, "coordinates": {"latitude": 43.47926, "longitude": -110.76211}, "transactions": [], "price": "$$", "location": {"address1": "20 E Broadway", "address2": null, "address3": "", "city": "Jackson", "zip_code": "83001", "country": "US", "state": "WY", "display_address": ["20 E Broadway", "Jackson, WY 83001"]}, "phone": "+13077390700", "display_phone": "(307) 739-0700", "distance": 1734.8419110836332}, {"id": "hmXJu-xaZWxhA6jU4adfow", "alias": "the-bird-jackson", "name": "The Bird", "image_url": "https://s3-media1.fl.yelpcdn.com/bphoto/D-CHNtBp_zcV6lK2ibh0UA/o.jpg", "is_closed": false, "url": "https://www.yelp.com/biz/the-bird-jackson?adjust_creative=N4NdN5Wbst2zJ7gy6AiqOA&utm_campaign=yelp_api_v3&utm_medium=api_v3_business_search&utm_source=N4NdN5Wbst2zJ7gy6AiqOA", "review_count": 276, "categories": [{"alias": "tradamerican", "title": "American (Traditional)"}], "rating": 4.0, "coordinates": {"latitude": 43.42013058073471, "longitude": -110.77696793917124}, "transactions": [], "price": "$$", "location": {"address1": "4125 S Pub Pl", "address2": "", "address3": "", "city": "Jackson", "zip_code": "83001", "country": "US", "state": "WY", "display_address": ["4125 S Pub Pl", "Jackson, WY 83001"]}, "phone": "+13077322473", "display_phone": "(307) 732-2473", "distance": 5095.050522271325}, {"id": "S8HsEo9s4Lv9wTylLhL6Sg", "alias": "glorietta-trattoria-jackson", "name": "Glorietta Trattoria", "image_url": "https://s3-media2.fl.yelpcdn.com/bphoto/viOvaHa_aKR3XEqs9-cGYA/o.jpg", "is_closed": false, "url": "https://www.yelp.com/biz/glorietta-trattoria-jackson?adjust_creative=N4NdN5Wbst2zJ7gy6AiqOA&utm_campaign=yelp_api_v3&utm_medium=api_v3_business_search&utm_source=N4NdN5Wbst2zJ7gy6AiqOA", "review_count": 345, "categories": [{"alias": "italian", "title": "Italian"}, {"alias": "bars", "title": "Bars"}], "rating": 4.5, "coordinates": {"latitude": 43.482545929220755, "longitude": -110.76356013307594}, "transactions": [], "price": "$$$", "location": {"address1": "242 N Glenwood St", "address2": null, "address3": "", "city": "Jackson", "zip_code": "83001", "country": "US", "state": "WY", "display_address": ["242 N Glenwood St", "Jackson, WY 83001"]}, "phone": "+13077333888", "display_phone": "(307) 733-3888", "distance": 1990.755271649574}, {"id": "AG_j0y0-ugqH87403LGgmg", "alias": "spur-restaurant-and-bar-teton-village", "name": "Spur Restaurant & Bar", "image_url": "https://s3-media3.fl.yelpcdn.com/bphoto/mg8MjJxbGOKIl6AvPL2Ocg/o.jpg", "is_closed": false, "url": "https://www.yelp.com/biz/spur-restaurant-and-bar-teton-village?adjust_creative=N4NdN5Wbst2zJ7gy6AiqOA&utm_campaign=yelp_api_v3&utm_medium=api_v3_business_search&utm_source=N4NdN5Wbst2zJ7gy6AiqOA", "review_count": 299, "categories": [{"alias": "newamerican", "title": "American (New)"}, {"alias": "cocktailbars", "title": "Cocktail Bars"}, {"alias": "breakfast_brunch", "title": "Breakfast & Brunch"}], "rating": 4.0, "coordinates": {"latitude": 43.586322, "longitude": -110.830459}, "transactions": [], "price": "$$", "location": {"address1": "3385 W Village Dr", "address2": "", "address3": "", "city": "Teton Village", "zip_code": "83025", "country": "US", "state": "WY", "display_address": ["3385 W Village Dr", "Teton Village, WY 83025"]}, "phone": "+13077326932", "display_phone": "(307) 732-6932", "distance": 14198.630557461629}, {"id": "xeCcxZDzOxbCyZcIydg81g", "alias": "bin22-jackson", "name": "Bin22", "image_url": "https://s3-media3.fl.yelpcdn.com/bphoto/F5jQhG5Y1z3bSgb9qtKWyQ/o.jpg", "is_closed": false, "url": "https://www.yelp.com/biz/bin22-jackson?adjust_creative=N4NdN5Wbst2zJ7gy6AiqOA&utm_campaign=yelp_api_v3&utm_medium=api_v3_business_search&utm_source=N4NdN5Wbst2zJ7gy6AiqOA", "review_count": 459, "categories": [{"alias": "tapasmallplates", "title": "Tapas/Small Plates"}, {"alias": "beer_and_wine", "title": "Beer, Wine & Spirits"}, {"alias": "wine_bars", "title": "Wine Bars"}], "rating": 4.5, "coordinates": {"latitude": 43.479285, "longitude": -110.765384}, "transactions": [], "price": "$$$", "location": {"address1": "200 W Broadway", "address2": "", "address3": "", "city": "Jackson", "zip_code": "83001", "country": "US", "state": "WY", "display_address": ["200 W Broadway", "Jackson, WY 83001"]}, "phone": "+13077399463", "display_phone": "(307) 739-9463", "distance": 1599.522141865006}, {"id": "4PlqW2Hjtxdp0WZUytONUg", "alias": "the-virginian-restaurant-jackson-2", "name": "The Virginian Restaurant", "image_url": "https://s3-media2.fl.yelpcdn.com/bphoto/SWb36leaQBLQY3Q7BNthow/o.jpg", "is_closed": false, "url": "https://www.yelp.com/biz/the-virginian-restaurant-jackson-2?adjust_creative=N4NdN5Wbst2zJ7gy6AiqOA&utm_campaign=yelp_api_v3&utm_medium=api_v3_business_search&utm_source=N4NdN5Wbst2zJ7gy6AiqOA", "review_count": 322, "categories": [{"alias": "tradamerican", "title": "American (Traditional)"}], "rating": 4.0, "coordinates": {"latitude": 43.47432, "longitude": -110.7775443}, "transactions": [], "price": "$", "location": {"address1": "740 W Broadway Ave", "address2": "", "address3": "", "city": "Jackson", "zip_code": "83001", "country": "US", "state": "WY", "display_address": ["740 W Broadway Ave", "Jackson, WY 83001"]}, "phone": "+13077334330", "display_phone": "(307) 733-4330", "distance": 1031.155918536503}, {"id": "35WTEKCC904BOCO_WMneVg", "alias": "bubbas-bar-b-que-jackson", "name": "Bubba's Bar-B-Que", "image_url": "https://s3-media3.fl.yelpcdn.com/bphoto/0lSCptl3r4Ewf5qdXVPggg/o.jpg", "is_closed": false, "url": "https://www.yelp.com/biz/bubbas-bar-b-que-jackson?adjust_creative=N4NdN5Wbst2zJ7gy6AiqOA&utm_campaign=yelp_api_v3&utm_medium=api_v3_business_search&utm_source=N4NdN5Wbst2zJ7gy6AiqOA", "review_count": 768, "categories": [{"alias": "bbq", "title": "Barbeque"}, {"alias": "breakfast_brunch", "title": "Breakfast & Brunch"}, {"alias": "tradamerican", "title": "American (Traditional)"}], "rating": 4.0, "coordinates": {"latitude": 43.47832, "longitude": -110.769743}, "transactions": [], "price": "$$", "location": {"address1": "100 Flat Creek Dr", "address2": "", "address3": "", "city": "Jackson", "zip_code": "83001", "country": "US", "state": "WY", "display_address": ["100 Flat Creek Dr", "Jackson, WY 83001"]}, "phone": "+13077332288", "display_phone": "(307) 733-2288", "distance": 1405.1285311160427}, {"id": "_ppFMfZT4m8o2D_khFhu9w", "alias": "jackson-hole-buffalo-meat-jackson", "name": "Jackson Hole Buffalo Meat", "image_url": "https://s3-media2.fl.yelpcdn.com/bphoto/MpkWJFCCBJQQaERJEyzcrQ/o.jpg", "is_closed": false, "url": "https://www.yelp.com/biz/jackson-hole-buffalo-meat-jackson?adjust_creative=N4NdN5Wbst2zJ7gy6AiqOA&utm_campaign=yelp_api_v3&utm_medium=api_v3_business_search&utm_source=N4NdN5Wbst2zJ7gy6AiqOA", "review_count": 25, "categories": [{"alias": "meats", "title": "Meat Shops"}], "rating": 4.5, "coordinates": {"latitude": 43.45955280090741, "longitude": -110.79454530901911}, "transactions": [], "price": "$$", "location": {"address1": "1325 S Hwy 89", "address2": "", "address3": null, "city": "Jackson", "zip_code": "83001", "country": "US", "state": "WY", "display_address": ["1325 S Hwy 89", "Jackson, WY 83001"]}, "phone": "+13077334159", "display_phone": "(307) 733-4159", "distance": 1918.8163591685277}, {"id": "MeB0wIniYv4_wDJbHAhOBg", "alias": "the-silver-dollar-bar-and-grill-jackson-2", "name": "The Silver Dollar Bar & Grill", "image_url": "https://s3-media3.fl.yelpcdn.com/bphoto/GC22WRKjltwq6CVwZzrJ9g/o.jpg", "is_closed": false, "url": "https://www.yelp.com/biz/the-silver-dollar-bar-and-grill-jackson-2?adjust_creative=N4NdN5Wbst2zJ7gy6AiqOA&utm_campaign=yelp_api_v3&utm_medium=api_v3_business_search&utm_source=N4NdN5Wbst2zJ7gy6AiqOA", "review_count": 454, "categories": [{"alias": "tradamerican", "title": "American (Traditional)"}, {"alias": "musicvenues", "title": "Music Venues"}, {"alias": "cocktailbars", "title": "Cocktail Bars"}], "rating": 3.5, "coordinates": {"latitude": 43.4797859449213, "longitude": -110.763371053967}, "transactions": [], "price": "$$", "location": {"address1": "50 N Glenwood St", "address2": "", "address3": "", "city": "Jackson", "zip_code": "83001", "country": "US", "state": "WY", "display_address": ["50 N Glenwood St", "Jackson, WY 83001"]}, "phone": "+13077323939", "display_phone": "(307) 732-3939", "distance": 1714.2157146620575}, {"id": "ui2IYrqTYYApR9rTlGTBpA", "alias": "liberty-burger-jackson-2", "name": "Liberty Burger", "image_url": "https://s3-media2.fl.yelpcdn.com/bphoto/9ob8lCj26mz_6axlca0wTA/o.jpg", "is_closed": false, "url": "https://www.yelp.com/biz/liberty-burger-jackson-2?adjust_creative=N4NdN5Wbst2zJ7gy6AiqOA&utm_campaign=yelp_api_v3&utm_medium=api_v3_business_search&utm_source=N4NdN5Wbst2zJ7gy6AiqOA", "review_count": 928, "categories": [{"alias": "burgers", "title": "Burgers"}, {"alias": "sandwiches", "title": "Sandwiches"}, {"alias": "desserts", "title": "Desserts"}], "rating": 4.5, "coordinates": {"latitude": 43.48132, "longitude": -110.76225}, "transactions": [], "price": "$$", "location": {"address1": "160 N Cache St", "address2": "", "address3": "", "city": "Jackson", "zip_code": "83001", "country": "US", "state": "WY", "display_address": ["160 N Cache St", "Jackson, WY 83001"]}, "phone": "+13072006071", "display_phone": "(307) 200-6071", "distance": 1907.0880574297828}, {"id": "OAMXBuPZwZfIDzXYvnQsAg", "alias": "trio-american-bistro-jackson", "name": "Trio American Bistro", "image_url": "https://s3-media1.fl.yelpcdn.com/bphoto/IHcc1xO3GXnOEx-V-qtHZQ/o.jpg", "is_closed": false, "url": "https://www.yelp.com/biz/trio-american-bistro-jackson?adjust_creative=N4NdN5Wbst2zJ7gy6AiqOA&utm_campaign=yelp_api_v3&utm_medium=api_v3_business_search&utm_source=N4NdN5Wbst2zJ7gy6AiqOA", "review_count": 248, "categories": [{"alias": "newamerican", "title": "American (New)"}, {"alias": "pizza", "title": "Pizza"}], "rating": 4.0, "coordinates": {"latitude": 43.47909795819, "longitude": -110.764160929872}, "transactions": [], "price": "$$$", "location": {"address1": "45 S Glenwood Dr", "address2": "", "address3": "", "city": "Jackson", "zip_code": "83001", "country": "US", "state": "WY", "display_address": ["45 S Glenwood Dr", "Jackson, WY 83001"]}, "phone": "+13077348038", "display_phone": "(307) 734-8038", "distance": 1618.076064369419}, {"id": "cD7YNjBwlr4WA16HcR6d7A", "alias": "cafe-genevieve-jackson", "name": "Cafe Genevieve", "image_url": "https://s3-media2.fl.yelpcdn.com/bphoto/dAq6zgXg4XS5SlYE6IQd7w/o.jpg", "is_closed": false, "url": "https://www.yelp.com/biz/cafe-genevieve-jackson?adjust_creative=N4NdN5Wbst2zJ7gy6AiqOA&utm_campaign=yelp_api_v3&utm_medium=api_v3_business_search&utm_source=N4NdN5Wbst2zJ7gy6AiqOA", "review_count": 929, "categories": [{"alias": "breakfast_brunch", "title": "Breakfast & Brunch"}, {"alias": "waffles", "title": "Waffles"}, {"alias": "cocktailbars", "title": "Cocktail Bars"}], "rating": 4.0, "coordinates": {"latitude": 43.47982461943593, "longitude": -110.76017911362057}, "transactions": ["pickup", "delivery"], "price": "$$", "location": {"address1": "135 E Broadway", "address2": "", "address3": "", "city": "Jackson", "zip_code": "83001", "country": "US", "state": "WY", "display_address": ["135 E Broadway", "Jackson, WY 83001"]}, "phone": "+13077321910", "display_phone": "(307) 732-1910", "distance": 1842.162244880865}, {"id": "RXoEMUHWvNkJQCBZJDwZCA", "alias": "sidewinders-jackson", "name": "Sidewinders", "image_url": "https://s3-media2.fl.yelpcdn.com/bphoto/AomZL22zuDm1kvoC1fCB0Q/o.jpg", "is_closed": false, "url": "https://www.yelp.com/biz/sidewinders-jackson?adjust_creative=N4NdN5Wbst2zJ7gy6AiqOA&utm_campaign=yelp_api_v3&utm_medium=api_v3_business_search&utm_source=N4NdN5Wbst2zJ7gy6AiqOA", "review_count": 499, "categories": [{"alias": "newamerican", "title": "American (New)"}, {"alias": "burgers", "title": "Burgers"}, {"alias": "pizza", "title": "Pizza"}], "rating": 3.5, "coordinates": {"latitude": 43.474617, "longitude": -110.783981}, "transactions": [], "price": "$$", "location": {"address1": "945 W Broadway", "address2": "", "address3": "", "city": "Jackson", "zip_code": "83001", "country": "US", "state": "WY", "display_address": ["945 W Broadway", "Jackson, WY 83001"]}, "phone": "+13077345766", "display_phone": "(307) 734-5766", "distance": 1335.5757042515615}, {"id": "aFd5v4kmheps6Jcf03oEXw", "alias": "the-kitchen-jackson", "name": "The Kitchen", "image_url": "https://s3-media1.fl.yelpcdn.com/bphoto/A-CoEorg5ppKn2zs-zkykQ/o.jpg", "is_closed": false, "url": "https://www.yelp.com/biz/the-kitchen-jackson?adjust_creative=N4NdN5Wbst2zJ7gy6AiqOA&utm_campaign=yelp_api_v3&utm_medium=api_v3_business_search&utm_source=N4NdN5Wbst2zJ7gy6AiqOA", "review_count": 334, "categories": [{"alias": "newamerican", "title": "American (New)"}, {"alias": "seafood", "title": "Seafood"}, {"alias": "asianfusion", "title": "Asian Fusion"}], "rating": 4.0, "coordinates": {"latitude": 43.480906, "longitude": -110.763837}, "transactions": [], "price": "$$$", "location": {"address1": "155 N Glenwood", "address2": "", "address3": "", "city": "Jackson", "zip_code": "83001", "country": "US", "state": "WY", "display_address": ["155 N Glenwood", "Jackson, WY 83001"]}, "phone": "+13077341633", "display_phone": "(307) 734-1633", "distance": 1813.0554445600824}, {"id": "C-C_s3vwgUnr1ueHyzTAGg", "alias": "eleanors-bar-and-grill-jackson", "name": "Eleanor's Bar & Grill", "image_url": "https://s3-media3.fl.yelpcdn.com/bphoto/OmmUGh9OLXEXUHdI3aMwQQ/o.jpg", "is_closed": false, "url": "https://www.yelp.com/biz/eleanors-bar-and-grill-jackson?adjust_creative=N4NdN5Wbst2zJ7gy6AiqOA&utm_campaign=yelp_api_v3&utm_medium=api_v3_business_search&utm_source=N4NdN5Wbst2zJ7gy6AiqOA", "review_count": 106, "categories": [{"alias": "newamerican", "title": "American (New)"}, {"alias": "sportsbars", "title": "Sports Bars"}], "rating": 3.5, "coordinates": {"latitude": 43.4734001159668, "longitude": -110.779998779297}, "transactions": [], "price": "$$", "location": {"address1": "832 W Broadway", "address2": "", "address3": "", "city": "Jackson", "zip_code": "83001", "country": "US", "state": "WY", "display_address": ["832 W Broadway", "Jackson, WY 83001"]}, "phone": "+13077337901", "display_phone": "(307) 733-7901", "distance": 1041.3178056525396}, {"id": "eR6TNx1sbK5w6MnoN8SLvA", "alias": "jackson-drug-jackson-4", "name": "Jackson Drug", "image_url": "https://s3-media2.fl.yelpcdn.com/bphoto/RfywqYs-1YBIDNmpS0DNJA/o.jpg", "is_closed": false, "url": "https://www.yelp.com/biz/jackson-drug-jackson-4?adjust_creative=N4NdN5Wbst2zJ7gy6AiqOA&utm_campaign=yelp_api_v3&utm_medium=api_v3_business_search&utm_source=N4NdN5Wbst2zJ7gy6AiqOA", "review_count": 292, "categories": [{"alias": "tradamerican", "title": "American (Traditional)"}], "rating": 3.5, "coordinates": {"latitude": 43.480410604930576, "longitude": -110.7622111110558}, "transactions": [], "price": "$$", "location": {"address1": "15 E Deloney Ave", "address2": "", "address3": null, "city": "Jackson", "zip_code": "83001", "country": "US", "state": "WY", "display_address": ["15 E Deloney Ave", "Jackson, WY 83001"]}, "phone": "+13072011275", "display_phone": "(307) 201-1275", "distance": 1817.707522654359}, {"id": "LIr5DwwgBNktgi4T2JSwmw", "alias": "cuttys-bar-and-grill-jackson", "name": "Cutty's Bar & Grill", "image_url": "https://s3-media3.fl.yelpcdn.com/bphoto/cMJ2xc2of1VGinZ8eZawLg/o.jpg", "is_closed": false, "url": "https://www.yelp.com/biz/cuttys-bar-and-grill-jackson?adjust_creative=N4NdN5Wbst2zJ7gy6AiqOA&utm_campaign=yelp_api_v3&utm_medium=api_v3_business_search&utm_source=N4NdN5Wbst2zJ7gy6AiqOA", "review_count": 137, "categories": [{"alias": "bars", "title": "Bars"}, {"alias": "pizza", "title": "Pizza"}, {"alias": "tradamerican", "title": "American (Traditional)"}], "rating": 4.0, "coordinates": {"latitude": 43.4740375861613, "longitude": -110.789716243744}, "transactions": ["pickup"], "price": "$$", "location": {"address1": "1140 W Hwy 22", "address2": "", "address3": "", "city": "Jackson", "zip_code": "83001", "country": "US", "state": "WY", "display_address": ["1140 W Hwy 22", "Jackson, WY 83001"]}, "phone": "+13072011079", "display_phone": "(307) 201-1079", "distance": 1668.938216793441}, {"id": "711AxxyeOXlCOIZ4nFgdFg", "alias": "big-hole-bbq-jackson-hole-jackson", "name": "Big Hole BBQ - Jackson Hole", "image_url": "https://s3-media1.fl.yelpcdn.com/bphoto/Xjb-xbO7cjEIXldA5Q29DA/o.jpg", "is_closed": false, "url": "https://www.yelp.com/biz/big-hole-bbq-jackson-hole-jackson?adjust_creative=N4NdN5Wbst2zJ7gy6AiqOA&utm_campaign=yelp_api_v3&utm_medium=api_v3_business_search&utm_source=N4NdN5Wbst2zJ7gy6AiqOA", "review_count": 315, "categories": [{"alias": "bbq", "title": "Barbeque"}], "rating": 3.5, "coordinates": {"latitude": 43.4785994384424, "longitude": -110.766610016085}, "transactions": [], "price": "$$", "location": {"address1": "325 W Pearl St", "address2": "", "address3": null, "city": "Jackson", "zip_code": "83001", "country": "US", "state": "WY", "display_address": ["325 W Pearl St", "Jackson, WY 83001"]}, "phone": "+13072641996", "display_phone": "(307) 264-1996", "distance": 1494.6479046670584}, {"id": "DSsvjqsqU-jqJMXiAqE9Ew", "alias": "mangy-moose-teton-village-5", "name": "Mangy Moose", "image_url": "https://s3-media3.fl.yelpcdn.com/bphoto/1fHdAxpBCF7Xn5aHhR6OqQ/o.jpg", "is_closed": false, "url": "https://www.yelp.com/biz/mangy-moose-teton-village-5?adjust_creative=N4NdN5Wbst2zJ7gy6AiqOA&utm_campaign=yelp_api_v3&utm_medium=api_v3_business_search&utm_source=N4NdN5Wbst2zJ7gy6AiqOA", "review_count": 625, "categories": [{"alias": "newamerican", "title": "American (New)"}, {"alias": "musicvenues", "title": "Music Venues"}, {"alias": "breakfast_brunch", "title": "Breakfast & Brunch"}], "rating": 3.5, "coordinates": {"latitude": 43.58645, "longitude": -110.82775}, "transactions": [], "price": "$$", "location": {"address1": "3295 Village Dr", "address2": "", "address3": "", "city": "Teton Village", "zip_code": "83025", "country": "US", "state": "WY", "display_address": ["3295 Village Dr", "Teton Village, WY 83025"]}, "phone": "+13077334913", "display_phone": "(307) 733-4913", "distance": 14134.325924888442}, {"id": "kVMBC5qA9t9hm8eHorNe8g", "alias": "orsetto-bar-and-italian-eatery-jackson", "name": "Orsetto Bar and Italian Eatery", "image_url": "https://s3-media4.fl.yelpcdn.com/bphoto/5jVV6bwQqyz5XjfG1Z3bJg/o.jpg", "is_closed": false, "url": "https://www.yelp.com/biz/orsetto-bar-and-italian-eatery-jackson?adjust_creative=N4NdN5Wbst2zJ7gy6AiqOA&utm_campaign=yelp_api_v3&utm_medium=api_v3_business_search&utm_source=N4NdN5Wbst2zJ7gy6AiqOA", "review_count": 131, "categories": [{"alias": "italian", "title": "Italian"}, {"alias": "cocktailbars", "title": "Cocktail Bars"}, {"alias": "wine_bars", "title": "Wine Bars"}], "rating": 3.5, "coordinates": {"latitude": 43.4810343, "longitude": -110.7612637}, "transactions": ["pickup"], "price": "$$$", "location": {"address1": "161 N Center St", "address2": null, "address3": "", "city": "Jackson", "zip_code": "83001", "country": "US", "state": "WY", "display_address": ["161 N Center St", "Jackson, WY 83001"]}, "phone": "+13072032664", "display_phone": "(307) 203-2664", "distance": 1914.4906251735833}, {"id": "T9xLdNb85Mtd9n0_FR3mxg", "alias": "continuum-bar-and-grill-jackson-2", "name": "Continuum Bar & Grill", "image_url": "https://s3-media4.fl.yelpcdn.com/bphoto/C3gDEoXAPG3ReTc8DGMd-A/o.jpg", "is_closed": false, "url": "https://www.yelp.com/biz/continuum-bar-and-grill-jackson-2?adjust_creative=N4NdN5Wbst2zJ7gy6AiqOA&utm_campaign=yelp_api_v3&utm_medium=api_v3_business_search&utm_source=N4NdN5Wbst2zJ7gy6AiqOA", "review_count": 36, "categories": [{"alias": "newamerican", "title": "American (New)"}, {"alias": "cocktailbars", "title": "Cocktail Bars"}], "rating": 4.0, "coordinates": {"latitude": 43.586085, "longitude": -110.829911}, "transactions": [], "location": {"address1": "3345 W Village Dr", "address2": "Ste 328", "address3": "", "city": "Jackson", "zip_code": "83001", "country": "US", "state": "WY", "display_address": ["3345 W Village Dr", "Ste 328", "Jackson, WY 83001"]}, "phone": "+18008427666", "display_phone": "(800) 842-7666", "distance": 14155.36074271754}, {"id": "D1VGHx4aQM3EnvIHqqyLUA", "alias": "haydens-post-jackson", "name": "Hayden's Post", "image_url": "https://s3-media4.fl.yelpcdn.com/bphoto/iXs4jMV76JwxzwXT1iIiRA/o.jpg", "is_closed": false, "url": "https://www.yelp.com/biz/haydens-post-jackson?adjust_creative=N4NdN5Wbst2zJ7gy6AiqOA&utm_campaign=yelp_api_v3&utm_medium=api_v3_business_search&utm_source=N4NdN5Wbst2zJ7gy6AiqOA", "review_count": 144, "categories": [{"alias": "cocktailbars", "title": "Cocktail Bars"}, {"alias": "newamerican", "title": "American (New)"}, {"alias": "comfortfood", "title": "Comfort Food"}], "rating": 3.5, "coordinates": {"latitude": 43.4728754698835, "longitude": -110.754488861316}, "transactions": [], "price": "$$", "location": {"address1": "400 E Snow King Ave", "address2": "", "address3": "", "city": "Jackson", "zip_code": "83001", "country": "US", "state": "WY", "display_address": ["400 E Snow King Ave", "Jackson, WY 83001"]}, "phone": "+13077343187", "display_phone": "(307) 734-3187", "distance": 1643.9872449319691}, {"id": "vShlUVmVGSNtOvnhLdGfZA", "alias": "the-granary-jackson", "name": "The Granary", "image_url": "https://s3-media3.fl.yelpcdn.com/bphoto/EFF5rtPaaB7bJ7Eh5qP6TA/o.jpg", "is_closed": false, "url": "https://www.yelp.com/biz/the-granary-jackson?adjust_creative=N4NdN5Wbst2zJ7gy6AiqOA&utm_campaign=yelp_api_v3&utm_medium=api_v3_business_search&utm_source=N4NdN5Wbst2zJ7gy6AiqOA", "review_count": 93, "categories": [{"alias": "tradamerican", "title": "American (Traditional)"}, {"alias": "cocktailbars", "title": "Cocktail Bars"}], "rating": 3.5, "coordinates": {"latitude": 43.50256, "longitude": -110.77072}, "transactions": [], "price": "$$$", "location": {"address1": "1600 N E Butte Rd", "address2": "", "address3": "", "city": "Jackson", "zip_code": "83001", "country": "US", "state": "WY", "display_address": ["1600 N E Butte Rd", "Jackson, WY 83001"]}, "phone": "+13077328112", "display_phone": "(307) 732-8112", "distance": 4086.900241933745}, {"id": "rbaicRpN9sdVPJYi0YgQbw", "alias": "the-bistro-jackson", "name": "The Bistro", "image_url": "https://s3-media1.fl.yelpcdn.com/bphoto/70nij6zPksy1BlZzh6H6ow/o.jpg", "is_closed": false, "url": "https://www.yelp.com/biz/the-bistro-jackson?adjust_creative=N4NdN5Wbst2zJ7gy6AiqOA&utm_campaign=yelp_api_v3&utm_medium=api_v3_business_search&utm_source=N4NdN5Wbst2zJ7gy6AiqOA", "review_count": 102, "categories": [{"alias": "french", "title": "French"}, {"alias": "brasseries", "title": "Brasseries"}], "rating": 4.0, "coordinates": {"latitude": 43.48081, "longitude": -110.76072}, "transactions": [], "location": {"address1": "112 Center St", "address2": null, "address3": "", "city": "Jackson", "zip_code": "83001", "country": "US", "state": "WY", "display_address": ["112 Center St", "Jackson, WY 83001"]}, "phone": "", "display_phone": "", "distance": 1890.9938357406943}, {"id": "xVGIjj0-xpbALaadr1rGeQ", "alias": "figs-jackson", "name": "FIGS", "image_url": "https://s3-media3.fl.yelpcdn.com/bphoto/KIZWEdmI0iwi_6X-l4EcQg/o.jpg", "is_closed": false, "url": "https://www.yelp.com/biz/figs-jackson?adjust_creative=N4NdN5Wbst2zJ7gy6AiqOA&utm_campaign=yelp_api_v3&utm_medium=api_v3_business_search&utm_source=N4NdN5Wbst2zJ7gy6AiqOA", "review_count": 229, "categories": [{"alias": "mediterranean", "title": "Mediterranean"}, {"alias": "cocktailbars", "title": "Cocktail Bars"}, {"alias": "lebanese", "title": "Lebanese"}], "rating": 4.0, "coordinates": {"latitude": 43.480688, "longitude": -110.763371}, "transactions": [], "price": "$$", "location": {"address1": "120 N Glenwood St", "address2": "", "address3": "", "city": "Jackson", "zip_code": "83001", "country": "US", "state": "WY", "display_address": ["120 N Glenwood St", "Jackson, WY 83001"]}, "phone": "+13077331200", "display_phone": "(307) 733-1200", "distance": 1805.512080446261}, {"id": "cbzkuSCh3TBT2E0yTA3JFQ", "alias": "pearl-st-market-jackson", "name": "Pearl St Market", "image_url": "https://s3-media3.fl.yelpcdn.com/bphoto/abzGOGMJpfPHnKTT2mgHkA/o.jpg", "is_closed": false, "url": "https://www.yelp.com/biz/pearl-st-market-jackson?adjust_creative=N4NdN5Wbst2zJ7gy6AiqOA&utm_campaign=yelp_api_v3&utm_medium=api_v3_business_search&utm_source=N4NdN5Wbst2zJ7gy6AiqOA", "review_count": 87, "categories": [{"alias": "grocery", "title": "Grocery"}, {"alias": "delis", "title": "Delis"}, {"alias": "meats", "title": "Meat Shops"}], "rating": 4.0, "coordinates": {"latitude": 43.478793, "longitude": -110.762676}, "transactions": ["pickup"], "price": "$$", "location": {"address1": "40 W Pearl St", "address2": null, "address3": null, "city": "Jackson", "zip_code": "83001", "country": "US", "state": "WY", "display_address": ["40 W Pearl St", "Jackson, WY 83001"]}, "phone": "+13077331300", "display_phone": "(307) 733-1300", "distance": 1641.0257809929317}, {"id": "Ws3PAbEhrXjp-tFxvC_nHw", "alias": "calico-restaurant-and-bar-wilson-2", "name": "Calico Restaurant and Bar", "image_url": "https://s3-media2.fl.yelpcdn.com/bphoto/P66kcBNIptz8jxjcprn7YA/o.jpg", "is_closed": false, "url": "https://www.yelp.com/biz/calico-restaurant-and-bar-wilson-2?adjust_creative=N4NdN5Wbst2zJ7gy6AiqOA&utm_campaign=yelp_api_v3&utm_medium=api_v3_business_search&utm_source=N4NdN5Wbst2zJ7gy6AiqOA", "review_count": 273, "categories": [{"alias": "italian", "title": "Italian"}, {"alias": "pizza", "title": "Pizza"}, {"alias": "bars", "title": "Bars"}], "rating": 3.5, "coordinates": {"latitude": 43.518089, "longitude": -110.841232}, "transactions": [], "price": "$$", "location": {"address1": "2650 Moose Wilson Rd", "address2": "", "address3": "", "city": "Wilson", "zip_code": "83014", "country": "US", "state": "WY", "display_address": ["2650 Moose Wilson Rd", "Wilson, WY 83014"]}, "phone": "+13077332460", "display_phone": "(307) 733-2460", "distance": 8043.9378475644635}, {"id": "2sDoyHhcLd96D7cFv9VA6Q", "alias": "streetfood-at-the-stagecoach-wilson", "name": "Streetfood at the Stagecoach", "image_url": "https://s3-media3.fl.yelpcdn.com/bphoto/SZsIZKrcE_XS0SNZNRcX4Q/o.jpg", "is_closed": false, "url": "https://www.yelp.com/biz/streetfood-at-the-stagecoach-wilson?adjust_creative=N4NdN5Wbst2zJ7gy6AiqOA&utm_campaign=yelp_api_v3&utm_medium=api_v3_business_search&utm_source=N4NdN5Wbst2zJ7gy6AiqOA", "review_count": 98, "categories": [{"alias": "burgers", "title": "Burgers"}, {"alias": "salad", "title": "Salad"}, {"alias": "tacos", "title": "Tacos"}], "rating": 4.5, "coordinates": {"latitude": 43.4983428, "longitude": -110.877081}, "transactions": [], "price": "$$", "location": {"address1": "5755 W Hwy 22", "address2": "", "address3": "The Stagecoach", "city": "Wilson", "zip_code": "83014", "country": "US", "state": "WY", "display_address": ["5755 W Hwy 22", "The Stagecoach", "Wilson, WY 83014"]}, "phone": "+13072006633", "display_phone": "(307) 200-6633", "distance": 9187.028704503235}, {"id": "cIb4UiJuNj8bGWO5_Qootw", "alias": "piste-mountain-bistro-teton-village", "name": "Piste Mountain Bistro", "image_url": "https://s3-media3.fl.yelpcdn.com/bphoto/wknHpJ7SFYwD1nSMMMY8Yg/o.jpg", "is_closed": false, "url": "https://www.yelp.com/biz/piste-mountain-bistro-teton-village?adjust_creative=N4NdN5Wbst2zJ7gy6AiqOA&utm_campaign=yelp_api_v3&utm_medium=api_v3_business_search&utm_source=N4NdN5Wbst2zJ7gy6AiqOA", "review_count": 73, "categories": [{"alias": "bars", "title": "Bars"}, {"alias": "sandwiches", "title": "Sandwiches"}, {"alias": "newamerican", "title": "American (New)"}], "rating": 3.5, "coordinates": {"latitude": 43.6015030484227, "longitude": -110.85409201371674}, "transactions": [], "price": "$$$", "location": {"address1": "3395 Cody Ln", "address2": "", "address3": "", "city": "Teton Village", "zip_code": "83025", "country": "US", "state": "WY", "display_address": ["3395 Cody Ln", "Teton Village, WY 83025"]}, "phone": "+13077323177", "display_phone": "(307) 732-3177", "distance": 16460.710287039023}, {"id": "4K_16QofONfe8QR3afLwGQ", "alias": "el-metate-jackson-2", "name": "El Metate", "image_url": "https://s3-media1.fl.yelpcdn.com/bphoto/7svlCLgBKNJk6lZriRZ69Q/o.jpg", "is_closed": false, "url": "https://www.yelp.com/biz/el-metate-jackson-2?adjust_creative=N4NdN5Wbst2zJ7gy6AiqOA&utm_campaign=yelp_api_v3&utm_medium=api_v3_business_search&utm_source=N4NdN5Wbst2zJ7gy6AiqOA", "review_count": 52, "categories": [{"alias": "mexican", "title": "Mexican"}], "rating": 4.5, "coordinates": {"latitude": 43.473447, "longitude": -110.781337}, "transactions": [], "location": {"address1": "850 W Broadway", "address2": "Ste H", "address3": "", "city": "Jackson", "zip_code": "83001", "country": "US", "state": "WY", "display_address": ["850 W Broadway", "Ste H", "Jackson, WY 83001"]}, "phone": "+13077349030", "display_phone": "(307) 734-9030", "distance": 1115.6251358395773}, {"id": "Db_temCq46jLvdk4iQTSRQ", "alias": "smiths-jackson", "name": "Smith's", "image_url": "https://s3-media3.fl.yelpcdn.com/bphoto/mEmb2soOjqM2B2jP6mwtbA/o.jpg", "is_closed": false, "url": "https://www.yelp.com/biz/smiths-jackson?adjust_creative=N4NdN5Wbst2zJ7gy6AiqOA&utm_campaign=yelp_api_v3&utm_medium=api_v3_business_search&utm_source=N4NdN5Wbst2zJ7gy6AiqOA", "review_count": 25, "categories": [{"alias": "grocery", "title": "Grocery"}], "rating": 4.0, "coordinates": {"latitude": 43.4588416005812, "longitude": -110.795639776913}, "transactions": [], "price": "$$", "location": {"address1": "1425 S Hwy 89", "address2": null, "address3": null, "city": "Jackson", "zip_code": "83001", "country": "US", "state": "WY", "display_address": ["1425 S Hwy 89", "Jackson, WY 83001"]}, "phone": "+13077338908", "display_phone": "(307) 733-8908", "distance": 2030.3020859089181}, {"id": "K8CK7Hrb70UFAB6JZ4I9MQ", "alias": "il-villaggio-osteria-teton-village-2", "name": "IL Villaggio Osteria", "image_url": "https://s3-media3.fl.yelpcdn.com/bphoto/twpZpkwhN9dtFbp0Rf_HIg/o.jpg", "is_closed": false, "url": "https://www.yelp.com/biz/il-villaggio-osteria-teton-village-2?adjust_creative=N4NdN5Wbst2zJ7gy6AiqOA&utm_campaign=yelp_api_v3&utm_medium=api_v3_business_search&utm_source=N4NdN5Wbst2zJ7gy6AiqOA", "review_count": 273, "categories": [{"alias": "italian", "title": "Italian"}, {"alias": "wine_bars", "title": "Wine Bars"}], "rating": 3.5, "coordinates": {"latitude": 43.586557, "longitude": -110.829182}, "transactions": [], "price": "$$", "location": {"address1": "3335 W Village Rd", "address2": "", "address3": "Hotel Terra", "city": "Teton Village", "zip_code": "83025", "country": "US", "state": "WY", "display_address": ["3335 W Village Rd", "Hotel Terra", "Teton Village, WY 83025"]}, "phone": "+13077394100", "display_phone": "(307) 739-4100", "distance": 14183.195757327965}, {"id": "apsqeOLlYIZATqBftiAqHg", "alias": "the-handle-bar-teton-village-2", "name": "The Handle Bar", "image_url": "https://s3-media1.fl.yelpcdn.com/bphoto/BZt9Pb0rAlo2dLtOWalkeg/o.jpg", "is_closed": false, "url": "https://www.yelp.com/biz/the-handle-bar-teton-village-2?adjust_creative=N4NdN5Wbst2zJ7gy6AiqOA&utm_campaign=yelp_api_v3&utm_medium=api_v3_business_search&utm_source=N4NdN5Wbst2zJ7gy6AiqOA", "review_count": 179, "categories": [{"alias": "gastropubs", "title": "Gastropubs"}, {"alias": "cocktailbars", "title": "Cocktail Bars"}], "rating": 3.5, "coordinates": {"latitude": 43.5889431737818, "longitude": -110.82651150730334}, "transactions": [], "price": "$$", "location": {"address1": "7680 Granite Loop Rd", "address2": "", "address3": "", "city": "Teton Village", "zip_code": "83025", "country": "US", "state": "WY", "display_address": ["7680 Granite Loop Rd", "Teton Village, WY 83025"]}, "phone": "+13077325157", "display_phone": "(307) 732-5157", "distance": 14367.72010078765}, {"id": "NsnG_DVc6tTpF9kbFHEVOg", "alias": "chinatown-restaurant-jackson", "name": "Chinatown Restaurant", "image_url": "https://s3-media2.fl.yelpcdn.com/bphoto/u7CG0txqV5EifJmWLPtB3w/o.jpg", "is_closed": false, "url": "https://www.yelp.com/biz/chinatown-restaurant-jackson?adjust_creative=N4NdN5Wbst2zJ7gy6AiqOA&utm_campaign=yelp_api_v3&utm_medium=api_v3_business_search&utm_source=N4NdN5Wbst2zJ7gy6AiqOA", "review_count": 117, "categories": [{"alias": "chinese", "title": "Chinese"}], "rating": 4.0, "coordinates": {"latitude": 43.473493, "longitude": -110.78099}, "transactions": [], "price": "$$", "location": {"address1": "850 W Broadway", "address2": "", "address3": "", "city": "Jackson", "zip_code": "83001", "country": "US", "state": "WY", "display_address": ["850 W Broadway", "Jackson, WY 83001"]}, "phone": "+13077338856", "display_phone": "(307) 733-8856", "distance": 1098.3324899357679}, {"id": "_fS3SbzqMQmWZU8H44LadA", "alias": "roadhouse-brewing-company-jackson-2", "name": "Roadhouse Brewing Company", "image_url": "https://s3-media4.fl.yelpcdn.com/bphoto/lsj65QD9a9YTZR8X9tUAfw/o.jpg", "is_closed": false, "url": "https://www.yelp.com/biz/roadhouse-brewing-company-jackson-2?adjust_creative=N4NdN5Wbst2zJ7gy6AiqOA&utm_campaign=yelp_api_v3&utm_medium=api_v3_business_search&utm_source=N4NdN5Wbst2zJ7gy6AiqOA", "review_count": 89, "categories": [{"alias": "bars", "title": "Bars"}, {"alias": "breweries", "title": "Breweries"}], "rating": 3.5, "coordinates": {"latitude": 43.46242, "longitude": -110.79811}, "transactions": [], "location": {"address1": "1225 Gregory Ln", "address2": "", "address3": null, "city": "Jackson", "zip_code": "83001", "country": "US", "state": "WY", "display_address": ["1225 Gregory Ln", "Jackson, WY 83001"]}, "phone": "+13072641900", "display_phone": "(307) 264-1900", "distance": 2114.5478348751753}, {"id": "eD6nkwTlWnNyGDQUCxXQAw", "alias": "merry-piglets-mexican-grill-jackson", "name": "Merry Piglets Mexican Grill", "image_url": "https://s3-media4.fl.yelpcdn.com/bphoto/nO7V6mjYPmdjuETeS5P8lQ/o.jpg", "is_closed": false, "url": "https://www.yelp.com/biz/merry-piglets-mexican-grill-jackson?adjust_creative=N4NdN5Wbst2zJ7gy6AiqOA&utm_campaign=yelp_api_v3&utm_medium=api_v3_business_search&utm_source=N4NdN5Wbst2zJ7gy6AiqOA", "review_count": 699, "categories": [{"alias": "mexican", "title": "Mexican"}], "rating": 4.0, "coordinates": {"latitude": 43.481279317091015, "longitude": -110.76225204636462}, "transactions": [], "price": "$$", "location": {"address1": "160 N Cache St", "address2": "", "address3": "", "city": "Jackson", "zip_code": "83001", "country": "US", "state": "WY", "display_address": ["160 N Cache St", "Jackson, WY 83001"]}, "phone": "+13077332966", "display_phone": "(307) 733-2966", "distance": 1902.932800705087}, {"id": "yfUmMGZto902dvIVB_716Q", "alias": "teton-thai-teton-village", "name": "Teton Thai", "image_url": "https://s3-media2.fl.yelpcdn.com/bphoto/yAlI7K6sHy_s735yqbyT3Q/o.jpg", "is_closed": false, "url": "https://www.yelp.com/biz/teton-thai-teton-village?adjust_creative=N4NdN5Wbst2zJ7gy6AiqOA&utm_campaign=yelp_api_v3&utm_medium=api_v3_business_search&utm_source=N4NdN5Wbst2zJ7gy6AiqOA", "review_count": 508, "categories": [{"alias": "thai", "title": "Thai"}], "rating": 4.0, "coordinates": {"latitude": 43.5881688640188, "longitude": -110.822714321699}, "transactions": [], "price": "$$", "location": {"address1": "7342 Granite Loop Rd", "address2": "", "address3": "", "city": "Teton Village", "zip_code": "83025", "country": "US", "state": "WY", "display_address": ["7342 Granite Loop Rd", "Teton Village, WY 83025"]}, "phone": "+13077330022", "display_phone": "(307) 733-0022", "distance": 14135.48202910841}, {"id": "7pdYPfsBCdrUXbXzDw5xqQ", "alias": "miazga-s-jackson", "name": "MIAZGA\u2019S", "image_url": "https://s3-media2.fl.yelpcdn.com/bphoto/T4kx8r2XelSrRshMTbxYcw/o.jpg", "is_closed": false, "url": "https://www.yelp.com/biz/miazga-s-jackson?adjust_creative=N4NdN5Wbst2zJ7gy6AiqOA&utm_campaign=yelp_api_v3&utm_medium=api_v3_business_search&utm_source=N4NdN5Wbst2zJ7gy6AiqOA", "review_count": 125, "categories": [{"alias": "salad", "title": "Salad"}, {"alias": "burgers", "title": "Burgers"}, {"alias": "sandwiches", "title": "Sandwiches"}], "rating": 4.5, "coordinates": {"latitude": 43.4800741588111, "longitude": -110.769447341802}, "transactions": ["pickup"], "location": {"address1": "399 W Broadway", "address2": "", "address3": null, "city": "Jackson", "zip_code": "83001", "country": "US", "state": "WY", "display_address": ["399 W Broadway", "Jackson, WY 83001"]}, "phone": "+13077332784", "display_phone": "(307) 733-2784", "distance": 1601.5497015190958}, {"id": "UIxPTecBOlqRVPQUTaf6ow", "alias": "thai-plate-jackson", "name": "Thai Plate", "image_url": "https://s3-media2.fl.yelpcdn.com/bphoto/aw64DMwRvWGjC4sKjLpBQA/o.jpg", "is_closed": false, "url": "https://www.yelp.com/biz/thai-plate-jackson?adjust_creative=N4NdN5Wbst2zJ7gy6AiqOA&utm_campaign=yelp_api_v3&utm_medium=api_v3_business_search&utm_source=N4NdN5Wbst2zJ7gy6AiqOA", "review_count": 457, "categories": [{"alias": "thai", "title": "Thai"}], "rating": 4.0, "coordinates": {"latitude": 43.48077, "longitude": -110.76398}, "transactions": [], "price": "$$", "location": {"address1": "145 N Glenwood St", "address2": "", "address3": "", "city": "Jackson", "zip_code": "83001", "country": "US", "state": "WY", "display_address": ["145 N Glenwood St", "Jackson, WY 83001"]}, "phone": "+13077342654", "display_phone": "(307) 734-2654", "distance": 1796.376471617269}, {"id": "xyv-CHRZmTCFokFWY-Q-jw", "alias": "fiesta-mexican-restaurant-jackson-2", "name": "Fiesta Mexican Restaurant", "image_url": "https://s3-media2.fl.yelpcdn.com/bphoto/tREf3ny0AugjdxW_K2pm5w/o.jpg", "is_closed": false, "url": "https://www.yelp.com/biz/fiesta-mexican-restaurant-jackson-2?adjust_creative=N4NdN5Wbst2zJ7gy6AiqOA&utm_campaign=yelp_api_v3&utm_medium=api_v3_business_search&utm_source=N4NdN5Wbst2zJ7gy6AiqOA", "review_count": 247, "categories": [{"alias": "mexican", "title": "Mexican"}], "rating": 4.5, "coordinates": {"latitude": 43.47245, "longitude": -110.78396}, "transactions": [], "price": "$$", "location": {"address1": "975 Alpine Ln", "address2": "Ste 3", "address3": null, "city": "Jackson", "zip_code": "83001", "country": "US", "state": "WY", "display_address": ["975 Alpine Ln", "Ste 3", "Jackson, WY 83001"]}, "phone": "+13072641750", "display_phone": "(307) 264-1750", "distance": 1199.1077644075888}, {"id": "jcajTDtddXTjAhr8ToLgDg", "alias": "suda-izakaya-jackson", "name": "SUDA Izakaya", "image_url": "https://s3-media4.fl.yelpcdn.com/bphoto/0f0lkuMFEQeXfdsv2KxKcw/o.jpg", "is_closed": false, "url": "https://www.yelp.com/biz/suda-izakaya-jackson?adjust_creative=N4NdN5Wbst2zJ7gy6AiqOA&utm_campaign=yelp_api_v3&utm_medium=api_v3_business_search&utm_source=N4NdN5Wbst2zJ7gy6AiqOA", "review_count": 91, "categories": [{"alias": "sushi", "title": "Sushi Bars"}, {"alias": "izakaya", "title": "Izakaya"}], "rating": 3.5, "coordinates": {"latitude": 43.48115, "longitude": -110.76204}, "transactions": [], "location": {"address1": "140 N Cache St", "address2": "Ste B", "address3": "", "city": "Jackson", "zip_code": "83001", "country": "US", "state": "WY", "display_address": ["140 N Cache St", "Ste B", "Jackson, WY 83001"]}, "phone": "+13072011616", "display_phone": "(307) 201-1616", "distance": 1899.7972971278643}, {"id": "MVsIuklDUwHRDnGQ_V2EBQ", "alias": "noodle-kitchen-jackson", "name": "Noodle Kitchen", "image_url": "https://s3-media2.fl.yelpcdn.com/bphoto/ojShUxnjtLJ4BGjAqlUnVA/o.jpg", "is_closed": false, "url": "https://www.yelp.com/biz/noodle-kitchen-jackson?adjust_creative=N4NdN5Wbst2zJ7gy6AiqOA&utm_campaign=yelp_api_v3&utm_medium=api_v3_business_search&utm_source=N4NdN5Wbst2zJ7gy6AiqOA", "review_count": 175, "categories": [{"alias": "noodles", "title": "Noodles"}], "rating": 3.5, "coordinates": {"latitude": 43.47454, "longitude": -110.78365}, "transactions": [], "price": "$$", "location": {"address1": "945 W Broadway", "address2": "", "address3": "", "city": "Jackson", "zip_code": "83001", "country": "US", "state": "WY", "display_address": ["945 W Broadway", "Jackson, WY 83001"]}, "phone": "+13077341997", "display_phone": "(307) 734-1997", "distance": 1335.5757042515615}, {"id": "ALzZsz0_Fvj45p97MOtAZg", "alias": "new-york-city-sub-shop-jackson-hole-jackson-3", "name": "New York City Sub Shop - Jackson Hole", "image_url": "https://s3-media3.fl.yelpcdn.com/bphoto/zvvRDVgDs0ysDOXz--ZanA/o.jpg", "is_closed": false, "url": "https://www.yelp.com/biz/new-york-city-sub-shop-jackson-hole-jackson-3?adjust_creative=N4NdN5Wbst2zJ7gy6AiqOA&utm_campaign=yelp_api_v3&utm_medium=api_v3_business_search&utm_source=N4NdN5Wbst2zJ7gy6AiqOA", "review_count": 63, "categories": [{"alias": "sandwiches", "title": "Sandwiches"}], "rating": 3.5, "coordinates": {"latitude": 43.479915055521, "longitude": -110.766126779098}, "transactions": [], "price": "$", "location": {"address1": "20N Jackson St", "address2": null, "address3": null, "city": "Jackson", "zip_code": "83001", "country": "US", "state": "WY", "display_address": ["20N Jackson St", "Jackson, WY 83001"]}, "phone": "+13077334414", "display_phone": "(307) 733-4414", "distance": 1645.8174389382618}, {"id": "Y2cmJP-59rJE9d33NGfN1w", "alias": "the-bunnery-bakery-and-restaurant-jackson", "name": "The Bunnery Bakery & Restaurant", "image_url": "https://s3-media1.fl.yelpcdn.com/bphoto/10ni352XB_vBENU6hUvCWg/o.jpg", "is_closed": false, "url": "https://www.yelp.com/biz/the-bunnery-bakery-and-restaurant-jackson?adjust_creative=N4NdN5Wbst2zJ7gy6AiqOA&utm_campaign=yelp_api_v3&utm_medium=api_v3_business_search&utm_source=N4NdN5Wbst2zJ7gy6AiqOA", "review_count": 654, "categories": [{"alias": "bakeries", "title": "Bakeries"}, {"alias": "breakfast_brunch", "title": "Breakfast & Brunch"}, {"alias": "tradamerican", "title": "American (Traditional)"}], "rating": 3.5, "coordinates": {"latitude": 43.4809197, "longitude": -110.7623549}, "transactions": [], "price": "$$", "location": {"address1": "130 N Cache St", "address2": "", "address3": "", "city": "Jackson", "zip_code": "83001", "country": "US", "state": "WY", "display_address": ["130 N Cache St", "Jackson, WY 83001"]}, "phone": "+13077335474", "display_phone": "(307) 733-5474", "distance": 1863.2918400033727}, {"id": "GFy1evcagHGQBPSYw16pxA", "alias": "hatch-taqueria-and-tequilas-jackson", "name": "Hatch Taqueria and Tequilas", "image_url": "https://s3-media4.fl.yelpcdn.com/bphoto/hTceYGrQdDK4q6CsPa-1cg/o.jpg", "is_closed": false, "url": "https://www.yelp.com/biz/hatch-taqueria-and-tequilas-jackson?adjust_creative=N4NdN5Wbst2zJ7gy6AiqOA&utm_campaign=yelp_api_v3&utm_medium=api_v3_business_search&utm_source=N4NdN5Wbst2zJ7gy6AiqOA", "review_count": 473, "categories": [{"alias": "mexican", "title": "Mexican"}, {"alias": "cocktailbars", "title": "Cocktail Bars"}, {"alias": "newmexican", "title": "New Mexican Cuisine"}], "rating": 3.5, "coordinates": {"latitude": 43.4793499, "longitude": -110.76408}, "transactions": ["pickup"], "price": "$$", "location": {"address1": "120 W Broadway Ave", "address2": "", "address3": "", "city": "Jackson", "zip_code": "83001", "country": "US", "state": "WY", "display_address": ["120 W Broadway Ave", "Jackson, WY 83001"]}, "phone": "+13072032780", "display_phone": "(307) 203-2780", "distance": 1643.8954515354824}, {"id": "zacZNiVTJ663Yls2qrBN1Q", "alias": "down-on-glen-jackson-2", "name": "Down On Glen", "image_url": "https://s3-media3.fl.yelpcdn.com/bphoto/NgiAaBeyu5d6dPbBHstENw/o.jpg", "is_closed": false, "url": "https://www.yelp.com/biz/down-on-glen-jackson-2?adjust_creative=N4NdN5Wbst2zJ7gy6AiqOA&utm_campaign=yelp_api_v3&utm_medium=api_v3_business_search&utm_source=N4NdN5Wbst2zJ7gy6AiqOA", "review_count": 162, "categories": [{"alias": "sandwiches", "title": "Sandwiches"}, {"alias": "breakfast_brunch", "title": "Breakfast & Brunch"}], "rating": 4.0, "coordinates": {"latitude": 43.479307091066886, "longitude": -110.7639382}, "transactions": [], "price": "$", "location": {"address1": "25 S Glenwood St", "address2": "", "address3": "", "city": "Jackson", "zip_code": "83001", "country": "US", "state": "WY", "display_address": ["25 S Glenwood St", "Jackson, WY 83001"]}, "phone": "+13077334422", "display_phone": "(307) 733-4422", "distance": 1646.675431561608}, {"id": "pZRO3lrUXhwfnw0nFB4e_g", "alias": "el-abuelito-family-mexican-restaurant-jackson", "name": "El Abuelito Family Mexican Restaurant", "image_url": "https://s3-media3.fl.yelpcdn.com/bphoto/s6Rwv4yc02H9QwjegaMFTg/o.jpg", "is_closed": false, "url": "https://www.yelp.com/biz/el-abuelito-family-mexican-restaurant-jackson?adjust_creative=N4NdN5Wbst2zJ7gy6AiqOA&utm_campaign=yelp_api_v3&utm_medium=api_v3_business_search&utm_source=N4NdN5Wbst2zJ7gy6AiqOA", "review_count": 243, "categories": [{"alias": "mexican", "title": "Mexican"}], "rating": 3.5, "coordinates": {"latitude": 43.4799499511719, "longitude": -110.768043518066}, "transactions": ["delivery"], "price": "$$", "location": {"address1": "385 W Broadway Ave", "address2": "", "address3": "", "city": "Jackson", "zip_code": "83001", "country": "US", "state": "WY", "display_address": ["385 W Broadway Ave", "Jackson, WY 83001"]}, "phone": "+13077331207", "display_phone": "(307) 733-1207", "distance": 1591.4658973729483}, {"id": "8iRKaqaqHelL9kDDxa6Maw", "alias": "whole-foods-market-jackson-4", "name": "Whole Foods Market", "image_url": "https://s3-media3.fl.yelpcdn.com/bphoto/4YpJFMSbbPY-F5_ZQJMPlA/o.jpg", "is_closed": false, "url": "https://www.yelp.com/biz/whole-foods-market-jackson-4?adjust_creative=N4NdN5Wbst2zJ7gy6AiqOA&utm_campaign=yelp_api_v3&utm_medium=api_v3_business_search&utm_source=N4NdN5Wbst2zJ7gy6AiqOA", "review_count": 15, "categories": [{"alias": "grocery", "title": "Grocery"}, {"alias": "organic_stores", "title": "Organic Stores"}, {"alias": "healthmarkets", "title": "Health Markets"}], "rating": 2.5, "coordinates": {"latitude": 43.46371, "longitude": -110.79423}, "transactions": [], "location": {"address1": "1155 S Hwy 89", "address2": "", "address3": null, "city": "Jackson", "zip_code": "83001", "country": "US", "state": "WY", "display_address": ["1155 S Hwy 89", "Jackson, WY 83001"]}, "phone": "+13077330450", "display_phone": "(307) 733-0450", "distance": 1766.620895877095}, {"id": "SFNtmQekUAIFtgTEprNGVg", "alias": "noras-fish-creek-inn-wilson", "name": "Nora's Fish Creek Inn", "image_url": "https://s3-media2.fl.yelpcdn.com/bphoto/jyj2pBic2w3IJZNE99YTzg/o.jpg", "is_closed": false, "url": "https://www.yelp.com/biz/noras-fish-creek-inn-wilson?adjust_creative=N4NdN5Wbst2zJ7gy6AiqOA&utm_campaign=yelp_api_v3&utm_medium=api_v3_business_search&utm_source=N4NdN5Wbst2zJ7gy6AiqOA", "review_count": 248, "categories": [{"alias": "tradamerican", "title": "American (Traditional)"}, {"alias": "breakfast_brunch", "title": "Breakfast & Brunch"}, {"alias": "pizza", "title": "Pizza"}], "rating": 4.0, "coordinates": {"latitude": 43.4979495326871, "longitude": -110.874666308649}, "transactions": ["pickup"], "price": "$$", "location": {"address1": "5600 W Hwy 22", "address2": null, "address3": "", "city": "Wilson", "zip_code": "83014", "country": "US", "state": "WY", "display_address": ["5600 W Hwy 22", "Wilson, WY 83014"]}, "phone": "+13077338288", "display_phone": "(307) 733-8288", "distance": 8990.815605372918}, {"id": "QHz59nUoZ1WPfvPdzCBlTw", "alias": "picas-mexican-taqueria-jackson-2", "name": "Pica's Mexican Taqueria", "image_url": "https://s3-media1.fl.yelpcdn.com/bphoto/I8HPdaBe0ClHLeX_bUfS_w/o.jpg", "is_closed": false, "url": "https://www.yelp.com/biz/picas-mexican-taqueria-jackson-2?adjust_creative=N4NdN5Wbst2zJ7gy6AiqOA&utm_campaign=yelp_api_v3&utm_medium=api_v3_business_search&utm_source=N4NdN5Wbst2zJ7gy6AiqOA", "review_count": 164, "categories": [{"alias": "mexican", "title": "Mexican"}], "rating": 3.0, "coordinates": {"latitude": 43.4717216491699, "longitude": -110.787689208984}, "transactions": [], "price": "$$", "location": {"address1": "1160 Alpine Ln", "address2": null, "address3": null, "city": "Jackson", "zip_code": "83002", "country": "US", "state": "WY", "display_address": ["1160 Alpine Ln", "Jackson, WY 83002"]}, "phone": "+13077344457", "display_phone": "(307) 734-4457", "distance": 1371.6112883039762}, {"id": "xIXDQ5A_13DggVqwkFTS6A", "alias": "subway-jackson-105", "name": "Subway", "image_url": "https://s3-media1.fl.yelpcdn.com/bphoto/_mk6tJgG-d2XyWcrGv3m1Q/o.jpg", "is_closed": false, "url": "https://www.yelp.com/biz/subway-jackson-105?adjust_creative=N4NdN5Wbst2zJ7gy6AiqOA&utm_campaign=yelp_api_v3&utm_medium=api_v3_business_search&utm_source=N4NdN5Wbst2zJ7gy6AiqOA", "review_count": 14, "categories": [{"alias": "hotdogs", "title": "Fast Food"}, {"alias": "sandwiches", "title": "Sandwiches"}], "rating": 2.0, "coordinates": {"latitude": 43.46931283693088, "longitude": -110.7913908369206}, "transactions": [], "price": "$", "location": {"address1": "520 S Hwy 89", "address2": "Unit D11", "address3": "Jackson Shopping Village", "city": "Jackson", "zip_code": "83001", "country": "US", "state": "WY", "display_address": ["520 S Hwy 89", "Unit D11", "Jackson Shopping Village", "Jackson, WY 83001"]}, "phone": "+13077391965", "display_phone": "(307) 739-1965", "distance": 1580.7277384850893}, {"id": "_BtUVJmJlc8PPYlHMSFumw", "alias": "tijuana-jackson", "name": "Tijuana", "image_url": "https://s3-media4.fl.yelpcdn.com/bphoto/VwZL0_Ie5Xm1UdJD04m_Ow/o.jpg", "is_closed": false, "url": "https://www.yelp.com/biz/tijuana-jackson?adjust_creative=N4NdN5Wbst2zJ7gy6AiqOA&utm_campaign=yelp_api_v3&utm_medium=api_v3_business_search&utm_source=N4NdN5Wbst2zJ7gy6AiqOA", "review_count": 66, "categories": [{"alias": "mexican", "title": "Mexican"}], "rating": 2.5, "coordinates": {"latitude": 43.46932172942936, "longitude": -110.79082716173968}, "transactions": [], "price": "$$", "location": {"address1": "520 S US Hwy 89", "address2": "", "address3": "", "city": "Jackson", "zip_code": "83001", "country": "US", "state": "WY", "display_address": ["520 S US Hwy 89", "Jackson, WY 83001"]}, "phone": "+13077333554", "display_phone": "(307) 733-3554", "distance": 1536.9134351914797}, {"id": "jnfTjW0M9XXj3RoxTGk4HQ", "alias": "gamefish-teton-village", "name": "Gamefish", "image_url": "https://s3-media1.fl.yelpcdn.com/bphoto/C5tJHX2aVsc2AvTyV0ePOQ/o.jpg", "is_closed": false, "url": "https://www.yelp.com/biz/gamefish-teton-village?adjust_creative=N4NdN5Wbst2zJ7gy6AiqOA&utm_campaign=yelp_api_v3&utm_medium=api_v3_business_search&utm_source=N4NdN5Wbst2zJ7gy6AiqOA", "review_count": 24, "categories": [{"alias": "seafood", "title": "Seafood"}, {"alias": "tradamerican", "title": "American (Traditional)"}], "rating": 3.0, "coordinates": {"latitude": 43.588592, "longitude": -110.826362}, "transactions": [], "price": "$$$", "location": {"address1": "7710 Granite Lp Rd", "address2": "", "address3": "The Snake River Lodge Spa", "city": "Teton Village", "zip_code": "83025", "country": "US", "state": "WY", "display_address": ["7710 Granite Lp Rd", "The Snake River Lodge Spa", "Teton Village, WY 83025"]}, "phone": "+13077326040", "display_phone": "(307) 732-6040", "distance": 14252.780158734939}]